$GPGGA,190741.142,5231.760,N,01323.097,E,1,12,1.0,0.0,M,0.0,M,,*6A
$GPGSA,A,3,01,02,03,04,05,06,07,08,09,10,11,12,1.0,1.0,1.0*30
$GPRMC,190741.142,A,5231.760,N,01323.097,E,2451.2,088.5,200420,000.0,W*4F
$GPGGA,190742.142,5231.788,N,01324.215,E,1,12,1.0,0.0,M,0.0,M,,*60
$GPGSA,A,3,01,02,03,04,05,06,07,08,09,10,11,12,1.0,1.0,1.0*30
$GPRMC,190742.142,A,5231.788,N,01324.215,E,746.0,101.0,200420,000.0,W*75
$GPGGA,190743.142,5231.725,N,01324.539,E,1,12,1.0,0.0,M,0.0,M,,*6F
$GPGSA,A,3,01,02,03,04,05,06,07,08,09,10,11,12,1.0,1.0,1.0*30
$GPRMC,190743.142,A,5231.725,N,01324.539,E,970.7,104.7,200420,000.0,W*74
$GPGGA,190744.142,5231.619,N,01324.946,E,1,12,1.0,0.0,M,0.0,M,,*62
$GPGSA,A,3,01,02,03,04,05,06,07,08,09,10,11,12,1.0,1.0,1.0*30
$GPRMC,190744.142,A,5231.619,N,01324.946,E,661.4,114.5,200420,000.0,W*76
$GPGGA,190745.142,5231.509,N,01325.188,E,1,12,1.0,0.0,M,0.0,M,,*6A
$GPGSA,A,3,01,02,03,04,05,06,07,08,09,10,11,12,1.0,1.0,1.0*30
$GPRMC,190745.142,A,5231.509,N,01325.188,E,773.3,227.5,200420,000.0,W*78
$GPGGA,190746.142,5231.330,N,01324.992,E,1,12,1.0,0.0,M,0.0,M,,*67
$GPGSA,A,3,01,02,03,04,05,06,07,08,09,10,11,12,1.0,1.0,1.0*30
$GPRMC,190746.142,A,5231.330,N,01324.992,E,1595.7,107.9,200420,000.0,W*47
$GPGGA,190747.142,5231.124,N,01325.636,E,1,12,1.0,0.0,M,0.0,M,,*61
$GPGSA,A,3,01,02,03,04,05,06,07,08,09,10,11,12,1.0,1.0,1.0*30
$GPRMC,190747.142,A,5231.124,N,01325.636,E,105.7,072.4,200420,000.0,W*73
$GPGGA,190748.142,5231.137,N,01325.679,E,1,12,1.0,0.0,M,0.0,M,,*67
$GPGSA,A,3,01,02,03,04,05,06,07,08,09,10,11,12,1.0,1.0,1.0*30
$GPRMC,190748.142,A,5231.137,N,01325.679,E,070.6,096.4,200420,000.0,W*7D
$GPGGA,190749.142,5231.134,N,01325.711,E,1,12,1.0,0.0,M,0.0,M,,*6A
$GPGSA,A,3,01,02,03,04,05,06,07,08,09,10,11,12,1.0,1.0,1.0*30
$GPRMC,190749.142,A,5231.134,N,01325.711,E,049.0,113.7,200420,000.0,W*73
$GPGGA,190750.142,5231.126,N,01325.729,E,1,12,1.0,0.0,M,0.0,M,,*6A
$GPGSA,A,3,01,02,03,04,05,06,07,08,09,10,11,12,1.0,1.0,1.0*30
$GPRMC,190750.142,A,5231.126,N,01325.729,E,045.9,120.3,200420,000.0,W*72
$GPGGA,190751.142,5231.117,N,01325.744,E,1,12,1.0,0.0,M,0.0,M,,*62
$GPGSA,A,3,01,02,03,04,05,06,07,08,09,10,11,12,1.0,1.0,1.0*30
$GPRMC,190751.142,A,5231.117,N,01325.744,E,046.9,116.0,200420,000.0,W*7F
$GPGGA,190752.142,5231.109,N,01325.761,E,1,12,1.0,0.0,M,0.0,M,,*69
$GPGSA,A,3,01,02,03,04,05,06,07,08,09,10,11,12,1.0,1.0,1.0*30
$GPRMC,190752.142,A,5231.109,N,01325.761,E,046.5,107.7,200420,000.0,W*7F
$GPGGA,190753.142,5231.103,N,01325.779,E,1,12,1.0,0.0,M,0.0,M,,*6B
$GPGSA,A,3,01,02,03,04,05,06,07,08,09,10,11,12,1.0,1.0,1.0*30
$GPRMC,190753.142,A,5231.103,N,01325.779,E,044.8,101.1,200420,000.0,W*72
$GPGGA,190754.142,5231.099,N,01325.799,E,1,12,1.0,0.0,M,0.0,M,,*60
$GPGSA,A,3,01,02,03,04,05,06,07,08,09,10,11,12,1.0,1.0,1.0*30
$GPRMC,190754.142,A,5231.099,N,01325.799,E,394.9,097.2,200420,000.0,W*7B
$GPGGA,190755.142,5231.077,N,01325.975,E,1,12,1.0,0.0,M,0.0,M,,*6D
$GPGSA,A,3,01,02,03,04,05,06,07,08,09,10,11,12,1.0,1.0,1.0*30
$GPRMC,190755.142,A,5231.077,N,01325.975,E,477.4,094.9,200420,000.0,W*79
$GPGGA,190756.142,5231.058,N,01326.191,E,1,12,1.0,0.0,M,0.0,M,,*62
$GPGSA,A,3,01,02,03,04,05,06,07,08,09,10,11,12,1.0,1.0,1.0*30
$GPRMC,190756.142,A,5231.058,N,01326.191,E,2336.4,096.0,200420,000.0,W*4D
$GPGGA,190757.142,5230.949,N,01327.241,E,1,12,1.0,0.0,M,0.0,M,,*64
$GPGSA,A,3,01,02,03,04,05,06,07,08,09,10,11,12,1.0,1.0,1.0*30
$GPRMC,190757.142,A,5230.949,N,01327.241,E,2826.7,095.7,200420,000.0,W*46
$GPGGA,190758.142,5230.822,N,01328.514,E,1,12,1.0,0.0,M,0.0,M,,*6F
$GPGSA,A,3,01,02,03,04,05,06,07,08,09,10,11,12,1.0,1.0,1.0*30
$GPRMC,190758.142,A,5230.822,N,01328.514,E,271.6,095.0,200420,000.0,W*71
$GPGGA,190759.142,5230.811,N,01328.636,E,1,12,1.0,0.0,M,0.0,M,,*6D
$GPGSA,A,3,01,02,03,04,05,06,07,08,09,10,11,12,1.0,1.0,1.0*30
$GPRMC,190759.142,A,5230.811,N,01328.636,E,943.5,095.8,200420,000.0,W*72
$GPGGA,190800.142,5230.768,N,01329.061,E,1,12,1.0,0.0,M,0.0,M,,*6A
$GPGSA,A,3,01,02,03,04,05,06,07,08,09,10,11,12,1.0,1.0,1.0*30
$GPRMC,190800.142,A,5230.768,N,01329.061,E,259.8,013.9,200420,000.0,W*77
$GPGGA,190801.142,5230.839,N,01329.079,E,1,12,1.0,0.0,M,0.0,M,,*69
$GPGSA,A,3,01,02,03,04,05,06,07,08,09,10,11,12,1.0,1.0,1.0*30
$GPRMC,190801.142,A,5230.839,N,01329.079,E,1014.5,015.0,200420,000.0,W*4C
$GPGGA,190802.142,5231.117,N,01329.153,E,1,12,1.0,0.0,M,0.0,M,,*67
$GPGSA,A,3,01,02,03,04,05,06,07,08,09,10,11,12,1.0,1.0,1.0*30
$GPRMC,190802.142,A,5231.117,N,01329.153,E,471.4,002.2,200420,000.0,W*71
$GPGGA,190803.142,5231.248,N,01329.159,E,1,12,1.0,0.0,M,0.0,M,,*65
$GPGSA,A,3,01,02,03,04,05,06,07,08,09,10,11,12,1.0,1.0,1.0*30
$GPRMC,190803.142,A,5231.248,N,01329.159,E,520.1,348.9,200420,000.0,W*75
$GPGGA,190804.142,5231.392,N,01329.130,E,1,12,1.0,0.0,M,0.0,M,,*6B
$GPGSA,A,3,01,02,03,04,05,06,07,08,09,10,11,12,1.0,1.0,1.0*30
$GPRMC,190804.142,A,5231.392,N,01329.130,E,754.0,268.7,200420,000.0,W*76
$GPGGA,190805.142,5231.384,N,01328.786,E,1,12,1.0,0.0,M,0.0,M,,*67
$GPGSA,A,3,01,02,03,04,05,06,07,08,09,10,11,12,1.0,1.0,1.0*30
$GPRMC,190805.142,A,5231.384,N,01328.786,E,333.0,270.3,200420,000.0,W*72
$GPGGA,190806.142,5231.385,N,01328.635,E,1,12,1.0,0.0,M,0.0,M,,*6C
$GPGSA,A,3,01,02,03,04,05,06,07,08,09,10,11,12,1.0,1.0,1.0*30
$GPRMC,190806.142,A,5231.385,N,01328.635,E,849.4,269.9,200420,000.0,W*79
$GPGGA,190807.142,5231.384,N,01328.247,E,1,12,1.0,0.0,M,0.0,M,,*6D
$GPGSA,A,3,01,02,03,04,05,06,07,08,09,10,11,12,1.0,1.0,1.0*30
$GPRMC,190807.142,A,5231.384,N,01328.247,E,323.3,280.1,200420,000.0,W*77
$GPGGA,190808.142,5231.409,N,01328.105,E,1,12,1.0,0.0,M,0.0,M,,*65
$GPGSA,A,3,01,02,03,04,05,06,07,08,09,10,11,12,1.0,1.0,1.0*30
$GPRMC,190808.142,A,5231.409,N,01328.105,E,227.5,289.2,200420,000.0,W*76
$GPGGA,190809.142,5231.440,N,01328.015,E,1,12,1.0,0.0,M,0.0,M,,*69
$GPGSA,A,3,01,02,03,04,05,06,07,08,09,10,11,12,1.0,1.0,1.0*30
$GPRMC,190809.142,A,5231.440,N,01328.015,E,580.6,279.8,200420,000.0,W*76
$GPGGA,190810.142,5231.484,N,01327.760,E,1,12,1.0,0.0,M,0.0,M,,*63
$GPGSA,A,3,01,02,03,04,05,06,07,08,09,10,11,12,1.0,1.0,1.0*30
$GPRMC,190810.142,A,5231.484,N,01327.760,E,328.7,284.7,200420,000.0,W*74
$GPGGA,190811.142,5231.520,N,01327.623,E,1,12,1.0,0.0,M,0.0,M,,*6B
$GPGSA,A,3,01,02,03,04,05,06,07,08,09,10,11,12,1.0,1.0,1.0*30
$GPRMC,190811.142,A,5231.520,N,01327.623,E,217.5,301.0,200420,000.0,W*78
$GPGGA,190812.142,5231.562,N,01327.552,E,1,12,1.0,0.0,M,0.0,M,,*6B
$GPGSA,A,3,01,02,03,04,05,06,07,08,09,10,11,12,1.0,1.0,1.0*30
$GPRMC,190812.142,A,5231.562,N,01327.552,E,158.3,245.5,200420,000.0,W*72
$GPGGA,190813.142,5231.536,N,01327.494,E,1,12,1.0,0.0,M,0.0,M,,*60
$GPGSA,A,3,01,02,03,04,05,06,07,08,09,10,11,12,1.0,1.0,1.0*30
$GPRMC,190813.142,A,5231.536,N,01327.494,E,133.3,306.6,200420,000.0,W*71
$GPGGA,190814.142,5231.565,N,01327.455,E,1,12,1.0,0.0,M,0.0,M,,*6C
$GPGSA,A,3,01,02,03,04,05,06,07,08,09,10,11,12,1.0,1.0,1.0*30
$GPRMC,190814.142,A,5231.565,N,01327.455,E,258.4,314.8,200420,000.0,W*79
$GPGGA,190815.142,5231.626,N,01327.393,E,1,12,1.0,0.0,M,0.0,M,,*64
$GPGSA,A,3,01,02,03,04,05,06,07,08,09,10,11,12,1.0,1.0,1.0*30
$GPRMC,190815.142,A,5231.626,N,01327.393,E,344.8,255.9,200420,000.0,W*74
$GPGGA,190816.142,5231.589,N,01327.248,E,1,12,1.0,0.0,M,0.0,M,,*66
$GPGSA,A,3,01,02,03,04,05,06,07,08,09,10,11,12,1.0,1.0,1.0*30
$GPRMC,190816.142,A,5231.589,N,01327.248,E,135.5,256.1,200420,000.0,W*74
$GPGGA,190817.142,5231.575,N,01327.191,E,1,12,1.0,0.0,M,0.0,M,,*63
$GPGSA,A,3,01,02,03,04,05,06,07,08,09,10,11,12,1.0,1.0,1.0*30
$GPRMC,190817.142,A,5231.575,N,01327.191,E,378.0,324.1,200420,000.0,W*7B
$GPGGA,190818.142,5231.671,N,01327.121,E,1,12,1.0,0.0,M,0.0,M,,*60
$GPGSA,A,3,01,02,03,04,05,06,07,08,09,10,11,12,1.0,1.0,1.0*30
$GPRMC,190818.142,A,5231.671,N,01327.121,E,363.3,312.6,200420,000.0,W*73
$GPGGA,190819.142,5231.755,N,01327.029,E,1,12,1.0,0.0,M,0.0,M,,*6F
$GPGSA,A,3,01,02,03,04,05,06,07,08,09,10,11,12,1.0,1.0,1.0*30
$GPRMC,190819.142,A,5231.755,N,01327.029,E,205.3,250.0,200420,000.0,W*7C
$GPGGA,190820.142,5231.726,N,01326.949,E,1,12,1.0,0.0,M,0.0,M,,*6F
$GPGSA,A,3,01,02,03,04,05,06,07,08,09,10,11,12,1.0,1.0,1.0*30
$GPRMC,190820.142,A,5231.726,N,01326.949,E,364.0,131.4,200420,000.0,W*79
$GPGGA,190821.142,5231.643,N,01327.043,E,1,12,1.0,0.0,M,0.0,M,,*6E
$GPGSA,A,3,01,02,03,04,05,06,07,08,09,10,11,12,1.0,1.0,1.0*30
$GPRMC,190821.142,A,5231.643,N,01327.043,E,436.7,253.6,200420,000.0,W*7A
$GPGGA,190822.142,5231.591,N,01326.864,E,1,12,1.0,0.0,M,0.0,M,,*6D
$GPGSA,A,3,01,02,03,04,05,06,07,08,09,10,11,12,1.0,1.0,1.0*30
$GPRMC,190822.142,A,5231.591,N,01326.864,E,669.5,312.5,200420,000.0,W*74
$GPGGA,190823.142,5231.745,N,01326.694,E,1,12,1.0,0.0,M,0.0,M,,*66
$GPGSA,A,3,01,02,03,04,05,06,07,08,09,10,11,12,1.0,1.0,1.0*30
$GPRMC,190823.142,A,5231.745,N,01326.694,E,815.2,311.0,200420,000.0,W*7B
$GPGGA,190824.142,5231.930,N,01326.481,E,1,12,1.0,0.0,M,0.0,M,,*6B
$GPGSA,A,3,01,02,03,04,05,06,07,08,09,10,11,12,1.0,1.0,1.0*30
$GPRMC,190824.142,A,5231.930,N,01326.481,E,1409.0,296.0,200420,000.0,W*4A
$GPGGA,190825.142,5232.175,N,01325.978,E,1,12,1.0,0.0,M,0.0,M,,*68
$GPGSA,A,3,01,02,03,04,05,06,07,08,09,10,11,12,1.0,1.0,1.0*30
$GPRMC,190825.142,A,5232.175,N,01325.978,E,1357.8,289.3,200420,000.0,W*40
$GPGGA,190826.142,5232.362,N,01325.441,E,1,12,1.0,0.0,M,0.0,M,,*68
$GPGSA,A,3,01,02,03,04,05,06,07,08,09,10,11,12,1.0,1.0,1.0*30
$GPRMC,190826.142,A,5232.362,N,01325.441,E,1576.4,278.2,200420,000.0,W*46
$GPGGA,190827.142,5232.463,N,01324.741,E,1,12,1.0,0.0,M,0.0,M,,*6D
$GPGSA,A,3,01,02,03,04,05,06,07,08,09,10,11,12,1.0,1.0,1.0*30
$GPRMC,190827.142,A,5232.463,N,01324.741,E,050.1,276.0,200420,000.0,W*7A
$GPGGA,190828.142,5232.465,N,01324.718,E,1,12,1.0,0.0,M,0.0,M,,*68
$GPGSA,A,3,01,02,03,04,05,06,07,08,09,10,11,12,1.0,1.0,1.0*30
$GPRMC,190828.142,A,5232.465,N,01324.718,E,194.6,179.3,200420,000.0,W*7E
$GPGGA,190829.142,5232.411,N,01324.719,E,1,12,1.0,0.0,M,0.0,M,,*6B
$GPGSA,A,3,01,02,03,04,05,06,07,08,09,10,11,12,1.0,1.0,1.0*30
$GPRMC,190829.142,A,5232.411,N,01324.719,E,1470.0,172.7,200420,000.0,W*4A
$GPGGA,190830.142,5232.004,N,01324.771,E,1,12,1.0,0.0,M,0.0,M,,*6D
$GPGSA,A,3,01,02,03,04,05,06,07,08,09,10,11,12,1.0,1.0,1.0*30
$GPRMC,190830.142,A,5232.004,N,01324.771,E,449.3,198.6,200420,000.0,W*71
$GPGGA,190831.142,5231.882,N,01324.730,E,1,12,1.0,0.0,M,0.0,M,,*6C
$GPGSA,A,3,01,02,03,04,05,06,07,08,09,10,11,12,1.0,1.0,1.0*30
$GPRMC,190831.142,A,5231.882,N,01324.730,E,387.1,230.7,200420,000.0,W*77
$GPGGA,190832.142,5231.796,N,01324.624,E,1,12,1.0,0.0,M,0.0,M,,*61
$GPGSA,A,3,01,02,03,04,05,06,07,08,09,10,11,12,1.0,1.0,1.0*30
$GPRMC,190832.142,A,5231.796,N,01324.624,E,026.7,231.4,200420,000.0,W*76
$GPGGA,190833.142,5231.790,N,01324.617,E,1,12,1.0,0.0,M,0.0,M,,*66
$GPGSA,A,3,01,02,03,04,05,06,07,08,09,10,11,12,1.0,1.0,1.0*30
$GPRMC,190833.142,A,5231.790,N,01324.617,E,045.8,285.6,200420,000.0,W*76
$GPGGA,190834.142,5231.795,N,01324.598,E,1,12,1.0,0.0,M,0.0,M,,*60
$GPGSA,A,3,01,02,03,04,05,06,07,08,09,10,11,12,1.0,1.0,1.0*30
$GPRMC,190834.142,A,5231.795,N,01324.598,E,262.2,286.6,200420,000.0,W*7E
$GPGGA,190835.142,5231.827,N,01324.490,E,1,12,1.0,0.0,M,0.0,M,,*6E
$GPGSA,A,3,01,02,03,04,05,06,07,08,09,10,11,12,1.0,1.0,1.0*30
$GPRMC,190835.142,A,5231.827,N,01324.490,E,323.1,286.1,200420,000.0,W*70
$GPGGA,190836.142,5231.865,N,01324.357,E,1,12,1.0,0.0,M,0.0,M,,*67
$GPGSA,A,3,01,02,03,04,05,06,07,08,09,10,11,12,1.0,1.0,1.0*30
$GPRMC,190836.142,A,5231.865,N,01324.357,E,079.3,194.9,200420,000.0,W*7F
$GPGGA,190837.142,5231.844,N,01324.351,E,1,12,1.0,0.0,M,0.0,M,,*63
$GPGSA,A,3,01,02,03,04,05,06,07,08,09,10,11,12,1.0,1.0,1.0*30
$GPRMC,190837.142,A,5231.844,N,01324.351,E,046.6,178.6,200420,000.0,W*7F
$GPGGA,190838.142,5231.831,N,01324.351,E,1,12,1.0,0.0,M,0.0,M,,*6E
$GPGSA,A,3,01,02,03,04,05,06,07,08,09,10,11,12,1.0,1.0,1.0*30
$GPRMC,190838.142,A,5231.831,N,01324.351,E,465.5,287.4,200420,000.0,W*75
$GPGGA,190839.142,5231.890,N,01324.163,E,1,12,1.0,0.0,M,0.0,M,,*67
$GPGSA,A,3,01,02,03,04,05,06,07,08,09,10,11,12,1.0,1.0,1.0*30
$GPRMC,190839.142,A,5231.890,N,01324.163,E,367.5,219.0,200420,000.0,W*7A
$GPGGA,190840.142,5231.798,N,01324.088,E,1,12,1.0,0.0,M,0.0,M,,*6A
$GPGSA,A,3,01,02,03,04,05,06,07,08,09,10,11,12,1.0,1.0,1.0*30
$GPRMC,190840.142,A,5231.798,N,01324.088,E,026.0,258.1,200420,000.0,W*70
$GPGGA,190841.142,5231.796,N,01324.077,E,1,12,1.0,0.0,M,0.0,M,,*65
$GPGSA,A,3,01,02,03,04,05,06,07,08,09,10,11,12,1.0,1.0,1.0*30
$GPRMC,190841.142,A,5231.796,N,01324.077,E,017.1,243.4,200420,000.0,W*73
$GPGGA,190842.142,5231.793,N,01324.071,E,1,12,1.0,0.0,M,0.0,M,,*65
$GPGSA,A,3,01,02,03,04,05,06,07,08,09,10,11,12,1.0,1.0,1.0*30
$GPRMC,190842.142,A,5231.793,N,01324.071,E,007.9,246.5,200420,000.0,W*7E
$GPGGA,190843.142,5231.792,N,01324.068,E,1,12,1.0,0.0,M,0.0,M,,*6D
$GPGSA,A,3,01,02,03,04,05,06,07,08,09,10,11,12,1.0,1.0,1.0*30
$GPRMC,190843.142,A,5231.792,N,01324.068,E,011.8,243.5,200420,000.0,W*75
$GPGGA,190844.142,5231.790,N,01324.064,E,1,12,1.0,0.0,M,0.0,M,,*64
$GPGSA,A,3,01,02,03,04,05,06,07,08,09,10,11,12,1.0,1.0,1.0*30
$GPRMC,190844.142,A,5231.790,N,01324.064,E,009.8,196.7,200420,000.0,W*7C
$GPGGA,190845.142,5231.787,N,01324.063,E,1,12,1.0,0.0,M,0.0,M,,*64
$GPGSA,A,3,01,02,03,04,05,06,07,08,09,10,11,12,1.0,1.0,1.0*30
$GPRMC,190845.142,A,5231.787,N,01324.063,E,011.2,239.7,200420,000.0,W*79
$GPGGA,190846.142,5231.785,N,01324.059,E,1,12,1.0,0.0,M,0.0,M,,*6C
$GPGSA,A,3,01,02,03,04,05,06,07,08,09,10,11,12,1.0,1.0,1.0*30
$GPRMC,190846.142,A,5231.785,N,01324.059,E,011.9,157.0,200420,000.0,W*76
$GPGGA,190847.142,5231.782,N,01324.061,E,1,12,1.0,0.0,M,0.0,M,,*61
$GPGSA,A,3,01,02,03,04,05,06,07,08,09,10,11,12,1.0,1.0,1.0*30
$GPRMC,190847.142,A,5231.782,N,01324.061,E,462.0,265.5,200420,000.0,W*75
$GPGGA,190848.142,5231.765,N,01323.852,E,1,12,1.0,0.0,M,0.0,M,,*68
$GPGSA,A,3,01,02,03,04,05,06,07,08,09,10,11,12,1.0,1.0,1.0*30
$GPRMC,190848.142,A,5231.765,N,01323.852,E,456.4,256.8,200420,000.0,W*72
$GPGGA,190849.142,5231.720,N,01323.657,E,1,12,1.0,0.0,M,0.0,M,,*63
$GPGSA,A,3,01,02,03,04,05,06,07,08,09,10,11,12,1.0,1.0,1.0*30
$GPRMC,190849.142,A,5231.720,N,01323.657,E,1234.5,273.8,200420,000.0,W*4C
$GPGGA,190850.142,5231.757,N,01323.097,E,1,12,1.0,0.0,M,0.0,M,,*61
$GPGSA,A,3,01,02,03,04,05,06,07,08,09,10,11,12,1.0,1.0,1.0*30
$GPRMC,190850.142,A,5231.757,N,01323.097,E,1234.5,273.8,200420,000.0,W*4E
